{
  "chargers": [
    {
      "name": "expressway charging - mariam enterprise",
      "id": "a001",
      "address": "connaught place, delhi",
      "distance": "2102",
      "distance_metrics": "metres",
      "latitude": "28.6139",
      "longitude": "77.2090",
      "connector_types": ["lvl1dc-2", "lvl2dc-1", "normalac-1"]
    },
    {
      "name": "power grid station - tech hub",
      "id": "a002",
      "address": "sector 18, noida",
      "distance": "3450",
      "distance_metrics": "metres",
      "latitude": "28.5355",
      "longitude": "77.3910",
      "connector_types": ["lvl2dc-3", "normalac-2"]
    },
    {
      "name": "green energy point - mall complex",
      "id": "a003",
      "address": "mg road, gurgaon",
      "distance": "1850",
      "distance_metrics": "metres",
      "latitude": "28.4595",
      "longitude": "77.0266",
      "connector_types": ["lvl1dc-1", "lvl2dc-2", "normalac-3", "ccs-1"]
    },
    {
      "name": "fast charge hub - metro station",
      "id": "a004",
      "address": "rajiv chowk, new delhi",
      "distance": "800",
      "distance_metrics": "metres",
      "latitude": "28.6328",
      "longitude": "77.2197",
      "connector_types": ["lvl2dc-4", "ccs-2"]
    },
    {
      "name": "eco drive center - business park",
      "id": "a005",
      "address": "cyber city, gurgaon",
      "distance": "5200",
      "distance_metrics": "metres",
      "latitude": "28.4949",
      "longitude": "77.0893",
      "connector_types": ["lvl1dc-2", "normalac-4", "chademo-1"]
    },
    {
      "name": "smart charging station - airport",
      "id": "a006",
      "address": "igi airport, delhi",
      "distance": "12000",
      "distance_metrics": "metres",
      "latitude": "28.5562",
      "longitude": "77.1000",
      "connector_types": ["lvl2dc-6", "ccs-3", "chademo-2"]
    },
    {
      "name": "urban charge point - hospital",
      "id": "a007",
      "address": "aiims, new delhi",
      "distance": "4100",
      "distance_metrics": "metres",
      "latitude": "28.5672",
      "longitude": "77.2100",
      "connector_types": ["normalac-2", "lvl1dc-1"]
    },
    {
      "name": "highway power station - toll plaza",
      "id": "a008",
      "address": "nh-1, sonipat",
      "distance": "25000",
      "distance_metrics": "metres",
      "latitude": "28.9931",
      "longitude": "77.0151",
      "connector_types": ["lvl2dc-8", "ccs-4", "chademo-2", "normalac-2"]
    },
    {
      "name": "metro charge hub - central station",
      "id": "a009",
      "address": "kashmere gate, delhi",
      "distance": "3200",
      "distance_metrics": "metres",
      "latitude": "28.6667",
      "longitude": "77.2167",
      "connector_types": ["lvl1dc-3", "lvl2dc-2", "normalac-1"]
    },
    {
      "name": "solar powered station - university",
      "id": "a010",
      "address": "jnu, new delhi",
      "distance": "8500",
      "distance_metrics": "metres",
      "latitude": "28.5495",
      "longitude": "77.1681",
      "connector_types": ["normalac-5", "lvl1dc-2", "ccs-1"]
    },
    {
      "name": "rapid charge center - shopping mall",
      "id": "a011",
      "address": "select city walk, saket",
      "distance": "6700",
      "distance_metrics": "metres",
      "latitude": "28.5245",
      "longitude": "77.2066",
      "connector_types": ["lvl2dc-4", "ccs-2", "normalac-3"]
    },
    {
      "name": "ev power hub - it park",
      "id": "a012",
      "address": "sector 62, noida",
      "distance": "18000",
      "distance_metrics": "metres",
      "latitude": "28.6207",
      "longitude": "77.3666",
      "connector_types": [
        "lvl1dc-1",
        "lvl2dc-3",
        "ccs-1",
        "chademo-1",
        "normalac-2"
      ]
    }
  ]
}
