{
  "chargers": [
    {
      "name": "pirangut highway charging - greenvolt",
      "id": "p001",
      "address": "Pirangut highway, Mulshi road",
      "distance": "800",
      "distance_metrics": "metres",
      "latitude": "18.5085",
      "longitude": "73.6782",
      "connector_types": ["lvl2dc-2", "normalac-2"]
    },
    {
      "name": "eco EV point - hinjewadi gate",
      "id": "p002",
      "address": "Phase 1, Hinjewadi IT park",
      "distance": "9500",
      "distance_metrics": "metres",
      "latitude": "18.5911",
      "longitude": "73.7395",
      "connector_types": ["lvl1dc-1", "ccs-1", "normalac-3"]
    },
    {
      "name": "mulshi fast charger - ecofleet",
      "id": "p003",
      "address": "Paud road, Mulshi",
      "distance": "6200",
      "distance_metrics": "metres",
      "latitude": "18.5039",
      "longitude": "73.6100",
      "connector_types": ["chademo-1", "lvl2dc-1"]
    },
    {
      "name": "lavasa highway EV - voltup",
      "id": "p004",
      "address": "Lavasa road, Bhugaon",
      "distance": "11000",
      "distance_metrics": "metres",
      "latitude": "18.5050",
      "longitude": "73.7312",
      "connector_types": ["lvl1dc-2", "normalac-1"]
    },
    {
      "name": "flame university charge hub",
      "id": "p005",
      "address": "Lavale, near FLAME University",
      "distance": "4500",
      "distance_metrics": "metres",
      "latitude": "18.5322",
      "longitude": "73.7009",
      "connector_types": ["lvl2dc-2", "normalac-2", "ccs-1"]
    },
    {
      "name": "bavdhan EV plaza - quickcharge",
      "id": "p006",
      "address": "Bavdhan Khurd, off NDA Road",
      "distance": "9800",
      "distance_metrics": "metres",
      "latitude": "18.5170",
      "longitude": "73.7972",
      "connector_types": ["ccs-2", "normalac-2"]
    },
    {
      "name": "sus road supercharge - fastvolt",
      "id": "p007",
      "address": "Sus Gaon, highway exit",
      "distance": "11400",
      "distance_metrics": "metres",
      "latitude": "18.5679",
      "longitude": "73.7798",
      "connector_types": ["lvl2dc-3", "chademo-1", "normalac-1"]
    },
    {
      "name": "chandani chowk e-hub",
      "id": "p008",
      "address": "Chandani Chowk, Pune",
      "distance": "12500",
      "distance_metrics": "metres",
      "latitude": "18.5058",
      "longitude": "73.7874",
      "connector_types": ["lvl1dc-1", "lvl2dc-1", "normalac-2"]
    }
  ]
}
